Location,Lat,Long,Radius,Date
Dam Square,52.368519, 4.902040, 50,-
Leidseplein, 52.363630, 4.881880,50,-
Rembrandtplein,52.365990, 4.896470,50,-
Museumplein,52.357430, 4.881610,50,-
Waterlooplein,52.367760,4.902752,50,-